{
  "city": "CDMX",
  "places": [
    {
      "id": 1,
      "name": "Pujol",
      "category": "Fine Dining",
      "address": "Tennyson 133, Polanco, CDMX",
      "city": "CDMX",
      "phone": "+52 55 5545 4111",
      "hours": "13:30-16:00, 19:00-22:30",
      "lat": 19.4326,
      "lng": -99.1932,
      "rating": 4.8,
      "price_range": "$$$$",
      "description_short": "Restaurante de alta cocina mexicana contemporánea por Enrique Olvera",
      "playlists": ["Fine Dining", "Alta Cocina", "Gourmet", "Romántico"],
      "source": "manual",
      "place_id": "pujol_polanco"
    },
    {
      "id": 2,
      "name": "Café de Tacuba",
      "category": "Café",
      "address": "Tacuba 28, Centro Histórico, CDMX",
      "city": "CDMX",
      "phone": "+52 55 5518 4950",
      "hours": "08:00-23:30",
      "lat": 19.4355,
      "lng": -99.1398,
      "rating": 4.2,
      "price_range": "$$",
      "description_short": "Café histórico con ambiente tradicional mexicano desde 1912",
      "playlists": ["Nostálgico", "Tradicional", "Centro Histórico"],
      "source": "manual",
      "place_id": "cafe_tacuba_centro"
    },
    {
      "id": 3,
      "name": "Limantour",
      "category": "Bar y Cantina",
      "address": "Álvaro Obregón 106, Roma Norte, CDMX",
      "city": "CDMX",
      "phone": "+52 55 5264 4122",
      "hours": "18:00-02:00",
      "lat": 19.415,
      "lng": -99.17,
      "rating": 4.5,
      "price_range": "$$$",
      "description_short": "Coctelería de autor en ambiente sofisticado",
      "playlists": ["Barbón", "Cocktails", "Roma Norte"],
      "source": "manual",
      "place_id": "limantour_roma"
    },
    {
      "id": 4,
      "name": "Contramar",
      "category": "Restaurante",
      "address": "Durango 200, Roma Norte, CDMX",
      "city": "CDMX",
      "phone": "+52 55 5514 9217",
      "hours": "13:00-18:30",
      "lat": 19.412,
      "lng": -99.165,
      "rating": 4.6,
      "price_range": "$$$",
      "description_short": "Mariscos frescos en ambiente casual elegante",
      "playlists": ["Mariscos", "Roma Norte", "Casual"],
      "source": "manual",
      "place_id": "contramar_roma"
    },
    {
      "id": 5,
      "name": "Starbucks Reserve",
      "category": "Café",
      "address": "Masaryk 393, Polanco, CDMX",
      "city": "CDMX",
      "phone": "+52 55 5280 1349",
      "hours": "06:00-22:00",
      "lat": 19.43,
      "lng": -99.19,
      "rating": 4.3,
      "price_range": "$$",
      "description_short": "Café premium con métodos de preparación especiales",
      "playlists": ["Godínez", "Café Premium", "Polanco"],
      "source": "manual",
      "place_id": "starbucks_reserve_polanco"
    }
  ]
}
