[
  {
    "id": "cdvictoria_001",
    "name": "Restaurante Don Jorge",
    "category": "Restaurante",
    "address": "Av. Tamaulipas 1100, Fracc. Las Huertas, 87025 Ciudad Victoria (Tamaulipas)",
    "city": "Ciudad Victoria (Tamaulipas)",
    "phone": "+52 834 316 0366",
    "hours": "Lun-Sáb 12:30-01:00; Dom 12:00-20:00",
    "lat": 23.7413,
    "lng": -99.1408,
    "rating": 4.5,
    "price_range": "$$$",
    "description_short": "Restaurante local de cocina mexicana y cortes, con terraza y cava de vinos.",
    "playlists": ["gourmet", "familiar", "romanticón"],
    "source": "gemini",
    "place_id": null
  },
  {
    "id": "cdvictoria_002",
    "name": "Rincón Cachanilla",
    "category": "Restaurante",
    "address": "Calle 16 Norberto Treviño Zapata #1312, Col. San Francisco, 87050 Ciudad Victoria (Tamaulipas)",
    "city": "Ciudad Victoria (Tamaulipas)",
    "phone": "+52 834 530 4195",
    "hours": "Lun, Mié-Sáb 08:00-17:45; Mar cerrado; Dom 08:00-17:45",
    "lat": 23.741,
    "lng": -99.1335,
    "rating": 4.7,
    "price_range": "$",
    "description_short": "Comida mexicana y mariscos con sabor casero y precios justos.",
    "playlists": ["tranqui", "familiar", "nostálgico"],
    "source": "gemini",
    "place_id": null
  },
  {
    "id": "cdvictoria_003",
    "name": "Bien Brasa \"Cocherita Grill\"",
    "category": "Restaurante",
    "address": "Calle Emiliano P. Nafarrete 3013, Fracc. Valle de Aguayo, 87020 Ciudad Victoria (Tamaulipas)",
    "city": "Ciudad Victoria (Tamaulipas)",
    "phone": "+52 834 138 5088",
    "hours": "Lun 15:00-23:00; Mar-Dom 08:00-13:00 & 14:00-23:00",
    "lat": 23.7522,
    "lng": -99.1467,
    "rating": 4.6,
    "price_range": "$$$",
    "description_short": "Parrilla gourmet con brunch, cortes al grill y mariscos en ambiente moderno.",
    "playlists": ["gourmet", "barbón", "romanticón"],
    "source": "gemini",
    "place_id": null
  },
  {
    "id": "cdvictoria_004",
    "name": "Restaurante Bar Las Gambas",
    "category": "Restaurante",
    "address": "Calle Chihuahua 1002, Esq. Calle 8, Col. San José, 87040 Ciudad Victoria (Tamaulipas)",
    "city": "Ciudad Victoria (Tamaulipas)",
    "phone": "+52 834 316 2134",
    "hours": "Lun-Mié 13:00-01:00; Jue-Sáb 13:00-02:00; Dom 13:00-22:00",
    "lat": 23.7362,
    "lng": -99.1425,
    "rating": 4.6,
    "price_range": "$$$",
    "description_short": "Mariscos y cortes en un entorno elegante, ideal para cenas especiales.",
    "playlists": ["romanticón", "gourmet", "nostálgico"],
    "source": "gemini",
    "place_id": null
  },
  {
    "id": "cdvictoria_005",
    "name": "La Clotilde Cocina de México",
    "category": "Restaurante",
    "address": "Calle Sonora 2002, Fracc. San José, 87020 Ciudad Victoria (Tamaulipas)",
    "city": "Ciudad Victoria (Tamaulipas)",
    "phone": "+52 834 112 7872",
    "hours": "Todos los días 08:30-15:00",
    "lat": 23.744,
    "lng": -99.1295,
    "rating": 4.5,
    "price_range": "$$",
    "description_short": "Desayunos y brunch mexicano en un ambiente acogedor y familiar.",
    "playlists": ["tranqui", "nostálgico", "familiar"],
    "source": "gemini",
    "place_id": null
  },
  {
    "id": "cdvictoria_006",
    "name": "Mi Casa Restaurante Hogareño",
    "category": "Restaurante",
    "address": "Calle Manuel González Jr. #2536, Col. Dr. Norberto Treviño Zapata, 87020 Ciudad Victoria (Tamaulipas)",
    "city": "Ciudad Victoria (Tamaulipas)",
    "phone": "+52 834 316 6578",
    "hours": "Lun-Sáb 08:00-21:00; Dom 08:00-16:00",
    "lat": 23.7336,
    "lng": -99.129,
    "rating": 4.7,
    "price_range": "$$",
    "description_short": "Sazón casera para desayunos, comidas y cenas en un ambiente cálido.",
    "playlists": ["tranqui", "familiar", "dominguero"],
    "source": "gemini",
    "place_id": null
  },
  {
    "id": "cdvictoria_007",
    "name": "Prana La Piazzetta Italiana",
    "category": "Restaurante",
    "address": "Calle Chihuahua 963-A, Fracc. San José, 87040 Ciudad Victoria (Tamaulipas)",
    "city": "Ciudad Victoria (Tamaulipas)",
    "phone": "+52 834 316 5278",
    "hours": "Mar-Dom 13:00-23:00; Lun cerrado",
    "lat": 23.7402,
    "lng": -99.1357,
    "rating": 4.4,
    "price_range": "$$$",
    "description_short": "Pastas y pizzas a la leña en un entorno íntimo con toque romántico.",
    "playlists": ["romanticón", "gourmet", "aesthetic"],
    "source": "gemini",
    "place_id": null
  },
  {
    "id": "cdvictoria_008",
    "name": "El Granero Victoria",
    "category": "Restaurante",
    "address": "Carrera Torres 807 (entre Calle 12 y 13), Zona Centro, 87000 Ciudad Victoria (Tamaulipas)",
    "city": "Ciudad Victoria (Tamaulipas)",
    "phone": "+52 834 316 9850",
    "hours": "Lun-Sáb 13:00-23:00; Dom 13:00-18:00",
    "lat": 23.7354,
    "lng": -99.1422,
    "rating": 4.5,
    "price_range": "$$$",
    "description_short": "Casona histórica con cortes, mariscos y cocina internacional de tradición.",
    "playlists": ["tranqui", "nostálgico", "cultural"],
    "source": "gemini",
    "place_id": null
  },
  {
    "id": "cdvictoria_009",
    "name": "Café Rosita (Plaza Forum)",
    "category": "Café",
    "address": "Av. Tamaulipas 3825, Plaza Forum, Fracc. Montes Altos, 87025 Ciudad Victoria (Tamaulipas)",
    "city": "Ciudad Victoria (Tamaulipas)",
    "phone": "+52 834 110 2121",
    "hours": "Lun-Sáb 08:00-21:30; Dom 09:00-22:00",
    "lat": 23.7625,
    "lng": -99.1735,
    "rating": 4.6,
    "price_range": "$$",
    "description_short": "Cafetería emblemática con desayunos típicos, flautas y café de olla.",
    "playlists": ["nostálgico", "familiar", "godínez"],
    "source": "gemini",
    "place_id": null
  },
  {
    "id": "cdvictoria_010",
    "name": "108 Café",
    "category": "Café",
    "address": "Calle Francisco I. Madero #237, Zona Centro, 87000 Ciudad Victoria (Tamaulipas)",
    "city": "Ciudad Victoria (Tamaulipas)",
    "phone": "+52 834 315 5768",
    "hours": "Mar-Dom 09:00-23:30; Lun cerrado",
    "lat": 23.7419,
    "lng": -99.1433,
    "rating": 4.7,
    "price_range": "$$",
    "description_short": "Café de especialidad y foro cultural con opciones veganas y música en vivo.",
    "playlists": ["cultural", "boho", "aesthetic"],
    "source": "gemini",
    "place_id": null
  },
  {
    "id": "cdvictoria_011",
    "name": "Restaurante Don Elías (Matriz)",
    "category": "Restaurante",
    "address": "Calle Benito Juárez #650, Zona Centro, 87000 Ciudad Victoria (Tamaulipas)",
    "city": "Ciudad Victoria (Tamaulipas)",
    "phone": "+52 834 315 5156",
    "hours": "Lun-Sáb 07:00-19:00; Dom cerrado",
    "lat": 23.7377,
    "lng": -99.1439,
    "rating": 4.4,
    "price_range": "$$",
    "description_short": "Clásico de desayunos y comidas corridas mexicanas con varias sucursales.",
    "playlists": ["nostálgico", "godínez", "familiar"],
    "source": "gemini",
    "place_id": null
  },
  {
    "id": "cdvictoria_012",
    "name": "El Rinconcito",
    "category": "Cafetería",
    "address": "Calle Manuel González Jr. #1338, Fracc. Sierra Gorda, 87050 Ciudad Victoria (Tamaulipas)",
    "city": "Ciudad Victoria (Tamaulipas)",
    "phone": "+52 834 271 6444",
    "hours": "Lun-Sáb 08:00-16:00; Dom cerrado",
    "lat": 23.7481,
    "lng": -99.1463,
    "rating": 4.6,
    "price_range": "$$",
    "description_short": "Cafetería-restaurante con enchiladas, gorditas y chilaquiles caseros.",
    "playlists": ["nostálgico", "familiar", "vintage"],
    "source": "gemini",
    "place_id": null
  },
  {
    "id": "cdvictoria_013",
    "name": "Café de León",
    "category": "Café",
    "address": "Calle Francisco I. Madero #361, Zona Centro, 87000 Ciudad Victoria (Tamaulipas)",
    "city": "Ciudad Victoria (Tamaulipas)",
    "phone": "+52 834 248 7435",
    "hours": "Lun-Vie 07:00-21:00; Sáb 08:00-21:00; Dom 09:00-20:00",
    "lat": 23.7381,
    "lng": -99.1402,
    "rating": 4.8,
    "price_range": "$$",
    "description_short": "Café de especialidad y repostería artesanal en ambiente vintage y acogedor.",
    "playlists": ["productivo", "aesthetic", "minimal"],
    "source": "gemini",
    "place_id": null
  },
  {
    "id": "cdvictoria_014",
    "name": "Starbucks CD. Victoria",
    "category": "Café",
    "address": "Blvd. Tamaulipas #890 Esq. Blvd. Adolfo López Mateos, Fracc. Sierra Gorda, 87020 Ciudad Victoria (Tamaulipas)",
    "city": "Ciudad Victoria (Tamaulipas)",
    "phone": "+52 834 110 1874",
    "hours": "Lun-Sáb 06:30-21:30; Dom 08:00-21:30",
    "lat": 23.7528,
    "lng": -99.1625,
    "rating": 4.3,
    "price_range": "$$",
    "description_short": "Cadena internacional de café, ideal para trabajar o relajarse.",
    "playlists": ["godínez", "chambeador", "aesthetic"],
    "source": "gemini",
    "place_id": null
  },
  {
    "id": "cdvictoria_015",
    "name": "Brooklyn Sports Bar",
    "category": "Bar",
    "address": "Av. Tamaulipas #3252, Plaza San Rafael, 87025 Ciudad Victoria (Tamaulipas)",
    "city": "Ciudad Victoria (Tamaulipas)",
    "phone": "+52 834 316 3788",
    "hours": "Lun-Dom 13:00-00:00 (Vie-Sáb hasta 01:00)",
    "lat": 23.7662,
    "lng": -99.163,
    "rating": 4.4,
    "price_range": "$$",
    "description_short": "Sport bar con pizzas al horno, alitas y pantallas para ver deportes.",
    "playlists": ["barbón", "dominguero", "familiar"],
    "source": "gemini",
    "place_id": null
  },
  {
    "id": "cdvictoria_016",
    "name": "La Capital Botanero",
    "category": "Bar",
    "address": "Calle Alejandro Prieto #1502, Col. Pedro José Méndez, 87040 Ciudad Victoria (Tamaulipas)",
    "city": "Ciudad Victoria (Tamaulipas)",
    "phone": null,
    "hours": "Mar-Dom 11:00-00:00; Lun cerrado",
    "lat": 23.7448,
    "lng": -99.1203,
    "rating": 4.3,
    "price_range": "$$",
    "description_short": "Botanero con música en vivo y noches temáticas para bailar y convivir.",
    "playlists": ["bellaqueo", "traca", "godínez"],
    "source": "gemini",
    "place_id": null
  },
  {
    "id": "cdvictoria_017",
    "name": "Tequilas Bar",
    "category": "Bar",
    "address": "Matías S. Canales #813, Col. Guadalupe, 87049 Ciudad Victoria (Tamaulipas)",
    "city": "Ciudad Victoria (Tamaulipas)",
    "phone": "+52 834 314 6199",
    "hours": "Mar-Dom 17:00-02:00; Lun cerrado",
    "lat": 23.7451,
    "lng": -99.142,
    "rating": 4.0,
    "price_range": "$",
    "description_short": "Bar casual para cerveza fría, shots y música norteña.",
    "playlists": ["barbón", "nostálgico", "bellaqueo"],
    "source": "gemini",
    "place_id": null
  },
  {
    "id": "cdvictoria_018",
    "name": "Bar El Mayor",
    "category": "Cantina",
    "address": "Calle Del Sol, Col. Comercial 2000, 87099 Ciudad Victoria (Tamaulipas)",
    "city": "Ciudad Victoria (Tamaulipas)",
    "phone": null,
    "hours": "Lun-Sáb 12:00-22:00; Dom cerrado",
    "lat": 23.7275,
    "lng": -99.1512,
    "rating": 4.2,
    "price_range": "$",
    "description_short": "Cantina tradicional con ambiente relajado y decoraciones vintage.",
    "playlists": ["nostálgico", "barbón", "vintage"],
    "source": "gemini",
    "place_id": null
  },
  {
    "id": "cdvictoria_019",
    "name": "Tequilas Bar",
    "category": "Bar",
    "address": "Matías S. Canales #813, Col. Guadalupe, 87049 Ciudad Victoria (Tamaulipas)",
    "city": "Ciudad Victoria (Tamaulipas)",
    "phone": "+52 834 314 6199",
    "hours": "Mar-Dom 17:00-02:00; Lun cerrado",
    "lat": 23.7451,
    "lng": -99.142,
    "rating": 4.0,
    "price_range": "$",
    "description_short": "Bar casual para cerveza fría, shots y música norteña.",
    "playlists": ["barbón", "nostálgico", "bellaqueo"],
    "source": "gemini",
    "place_id": null
  },
  {
    "id": "cdvictoria_020",
    "name": "La Terracita Boneless & Grill",
    "category": "Rest-Bar",
    "address": "Calle Sonora #324-A (2o Piso), Esq. Calle 14, Col. Norberto Treviño Zapata, 87020 Ciudad Victoria (Tamaulipas)",
    "city": "Ciudad Victoria (Tamaulipas)",
    "phone": "+52 834 130 7776",
    "hours": "Mar-Dom 13:00-23:00; Lun cerrado",
    "lat": 23.7458,
    "lng": -99.1342,
    "rating": 4.2,
    "price_range": "$$",
    "description_short": "Alitas, boneless y pantallas en terraza para pasar la tarde en familia.",
    "playlists": ["familiar", "dominguero", "nostálgico"],
    "source": "gemini",
    "place_id": null
  },
  {
    "id": "cdvictoria_021",
    "name": "Lili's Boutique",
    "category": "Boutique",
    "address": "Calle Chihuahua #340, Col. Centro, 87000 Ciudad Victoria (Tamaulipas)",
    "city": "Ciudad Victoria (Tamaulipas)",
    "phone": "+52 834 175 2718",
    "hours": "Lun-Sáb 10:30-20:00; Dom 11:00-17:00",
    "lat": 23.7372,
    "lng": -99.1431,
    "rating": 4.3,
    "price_range": "$$",
    "description_short": "Moda femenina con vestidos de fiesta, ropa casual y tallas extra.",
    "playlists": ["vintage", "boho", "nostálgico"],
    "source": "gemini",
    "place_id": null
  },
  {
    "id": "cdvictoria_022",
    "name": "Gigie Boutique",
    "category": "Boutique",
    "address": "Calle Olivia Ramírez #1019-A (entre 7 y 8), Col. Casa Blanca, 87030 Ciudad Victoria (Tamaulipas)",
    "city": "Ciudad Victoria (Tamaulipas)",
    "phone": "+52 834 308 0964",
    "hours": "Lun-Dom 11:00-19:00",
    "lat": 23.7435,
    "lng": -99.126,
    "rating": 4.5,
    "price_range": "$$",
    "description_short": "Ropa, calzado y accesorios para dama con estilo chic contemporáneo.",
    "playlists": ["aesthetic", "minimal", "boho"],
    "source": "gemini",
    "place_id": null
  },
  {
    "id": "cdvictoria_023",
    "name": "Blueberry Boutique & Zapatería",
    "category": "Boutique",
    "address": "Plaza Soriana Palmas, Blvd. Tamaulipas #2033, Local 33, Col. Pedro Sosa, 87040 Ciudad Victoria (Tamaulipas)",
    "city": "Ciudad Victoria (Tamaulipas)",
    "phone": "+52 834 110 0055",
    "hours": "Lun-Dom 09:30-21:00",
    "lat": 23.743,
    "lng": -99.1705,
    "rating": 4.4,
    "price_range": "$$",
    "description_short": "Ropa y calzado para toda la familia, desde uniformes hasta moda casual.",
    "playlists": ["familiar", "dominguero", "nostálgico"],
    "source": "gemini",
    "place_id": null
  },
  {
    "id": "cdvictoria_024",
    "name": "CATRINA Guayaberas \"Arte que te viste\"",
    "category": "Boutique",
    "address": "Calle Baja California #16, Col. Norberto Treviño Zapata, 87040 Ciudad Victoria (Tamaulipas)",
    "city": "Ciudad Victoria (Tamaulipas)",
    "phone": "+52 834 273 8771",
    "hours": "Lun-Sáb 11:00-19:00; Dom 10:00-13:00",
    "lat": 23.7392,
    "lng": -99.134,
    "rating": 4.8,
    "price_range": "$$$",
    "description_short": "Guayaberas y trajes típicos con diseño artesanal y toque contemporáneo.",
    "playlists": ["cultural", "nostálgico", "vintage"],
    "source": "gemini",
    "place_id": null
  },
  {
    "id": "cdvictoria_025",
    "name": "Museo Regional de Historia de Tamaulipas",
    "category": "Museo",
    "address": "Calle Venustiano Carranza s/n Esq. Allende, Zona Centro, 87000 Ciudad Victoria (Tamaulipas)",
    "city": "Ciudad Victoria (Tamaulipas)",
    "phone": null,
    "hours": "Mar-Vie 10:00-18:00; Sáb-Dom 10:00-16:00; Lun cerrado",
    "lat": 23.7361,
    "lng": -99.1415,
    "rating": 4.7,
    "price_range": "$",
    "description_short": "Historia de Tamaulipas desde épocas prehispánicas en edificio del siglo XIX.",
    "playlists": ["cultural", "tranqui", "nostálgico"],
    "source": "gemini",
    "place_id": null
  },
  {
    "id": "cdvictoria_026",
    "name": "Museo de Historia Natural de Tamaulipas (TAMux)",
    "category": "Museo",
    "address": "Blvd. Fidel Velázquez s/n, Col. Horacio Terán, 87310 Ciudad Victoria (Tamaulipas)",
    "city": "Ciudad Victoria (Tamaulipas)",
    "phone": "+52 834 318 3600",
    "hours": "Mar-Dom 10:00-18:00; Lun cerrado",
    "lat": 23.7121,
    "lng": -99.1425,
    "rating": 4.6,
    "price_range": "$",
    "description_short": "Museo interactivo de ciencias y naturaleza con planetario y exhibiciones.",
    "playlists": ["cultural", "familiar", "dominguero"],
    "source": "gemini",
    "place_id": null
  },
  {
    "id": "cdvictoria_027",
    "name": "Centro Cultural Tamaulipas",
    "category": "Centro Cultural",
    "address": "Calle 16 y Morelos s/n, Zona Centro, 87000 Ciudad Victoria (Tamaulipas)",
    "city": "Ciudad Victoria (Tamaulipas)",
    "phone": "+52 834 318 8600",
    "hours": "Mar-Dom 10:00-19:00; Lun cerrado",
    "lat": 23.7405,
    "lng": -99.1428,
    "rating": 4.8,
    "price_range": "$",
    "description_short": "Teatro, galerías y biblioteca; sede de festivales y eventos artísticos.",
    "playlists": ["cultural", "familiar", "tranqui"],
    "source": "gemini",
    "place_id": null
  },
  {
    "id": "cdvictoria_028",
    "name": "Librería El Mundo",
    "category": "Librería",
    "address": "Calle Ricardo Flores Magón #325 Local B, Col. Adolfo López Mateos, 87024 Ciudad Victoria (Tamaulipas)",
    "city": "Ciudad Victoria (Tamaulipas)",
    "phone": "+52 834 314 2970",
    "hours": "Lun-Vie 09:00-18:00; Sáb 09:00-15:00; Dom cerrado",
    "lat": 23.7447,
    "lng": -99.1563,
    "rating": 4.9,
    "price_range": "$$",
    "description_short": "Librería independiente con amplio catálogo y servicio a domicilio.",
    "playlists": ["cultural", "tranqui", "productivo"],
    "source": "gemini",
    "place_id": null
  },
  {
    "id": "cdvictoria_029",
    "name": "Casa del Arte Victoria",
    "category": "Centro Cultural",
    "address": "7 y 8 Mariano Matamoros #1000, Zona Centro, 87000 Ciudad Victoria (Tamaulipas)",
    "city": "Ciudad Victoria (Tamaulipas)",
    "phone": "+52 834 312 1654",
    "hours": "Lun-Vie 08:00-20:00; Sáb 08:00-14:00; Dom cerrado",
    "lat": 23.7358,
    "lng": -99.1468,
    "rating": 4.9,
    "price_range": "$",
    "description_short": "Centro cultural con talleres de arte, música y danza para toda la comunidad.",
    "playlists": ["cultural", "productivo", "tranqui"],
    "source": "gemini",
    "place_id": null
  },
  {
    "id": "cdvictoria_030",
    "name": "Bella Spa Laser & Beauty",
    "category": "Spa",
    "address": "Calle Quintana Roo 9 y 10, Col. Zona Centro, 87020 Ciudad Victoria (Tamaulipas)",
    "city": "Ciudad Victoria (Tamaulipas)",
    "phone": "+52 834 165 8269",
    "hours": "Lun-Vie 10:00-19:00; Sáb 10:00-16:00; Dom cerrado",
    "lat": 23.737,
    "lng": -99.135,
    "rating": 4.7,
    "price_range": "$$$",
    "description_short": "Spa y salón de belleza con tratamientos faciales y depilación láser.",
    "playlists": ["tranqui", "aesthetic", "minimal"],
    "source": "gemini",
    "place_id": null
  }
]
