[
  {
    "id": "cdgdl_001",
    "name": "Karne Garibaldi (Santa Tere)",
    "category": "Restaurantes",
    "address": "Calle Garibaldi 1306, Col. Santa Teresita, 44600 Guadalajara, Jal.",
    "city": "Guadalajara (Jalisco)",
    "phone": "33 4737 4884",
    "hours": "Lun-Dom 10:00-22:00",
    "lat": 20.6814,
    "lng": -103.3664,
    "rating": 4.6,
    "price_range": "$$",
    "description_short": "Famoso por su carne en su jugo servida en tiempo récord, un lugar tradicional y familiar para degustar comida típica jalisciense.",
    "playlists": ["familiar", "nostálgico"],
    "source": "gemini",
    "place_id": null
  },
  {
    "id": "cdgdl_002",
    "name": "La Chata de Guadalajara (Centro)",
    "category": "Restaurantes",
    "address": "Av. Ramón Corona 126, Zona Centro, 44100 Guadalajara, Jal.",
    "city": "Guadalajara (Jalisco)",
    "phone": "33 3613 1315",
    "hours": "Lun-Dom 07:30-00:00",
    "lat": 20.6747,
    "lng": -103.3467,
    "rating": 4.5,
    "price_range": "$$",
    "description_short": "Restaurante tradicional con más de 50 años ofreciendo cocina mexicana casera. Siempre concurrido por locales y turistas para disfrutar tortas ahogadas, pozole y antojitos tapatíos.",
    "playlists": ["nostálgico", "familiar"],
    "source": "gemini",
    "place_id": null
  },
  {
    "id": "cdgdl_003",
    "name": "Hueso",
    "category": "Restaurantes",
    "address": "Calle Efraín González Luna 2061, Col. Lafayette",
    "city": "Guadalajara (Jalisco)",
    "phone": "33 1595 5684",
    "hours": "Mar-Sáb 13:00-23:00; Dom-Lun cerrado",
    "lat": 20.6739,
    "lng": -103.375,
    "rating": 4.7,
    "price_range": "$$$",
    "description_short": "Restaurante de autor con un interior único decorado con miles de huesos blancos. Ofrece alta cocina mexicana en un ambiente artístico y vanguardista que deleita todos los sentidos.",
    "playlists": ["aesthetic", "gourmet"],
    "source": "gemini",
    "place_id": null
  },
  {
    "id": "cdgdl_004",
    "name": "Bruna",
    "category": "Restaurantes",
    "address": "C. Miguel Lerdo de Tejada 2418, Col. Lafayette",
    "city": "Guadalajara (Jalisco)",
    "phone": "33 2003 0904",
    "hours": "Lun-Dom 14:00-00:00 (hasta 01:00 Jue-Sáb)",
    "lat": 20.6735,
    "lng": -103.376,
    "rating": 4.6,
    "price_range": "$$$",
    "description_short": "Elegante restaurante de cocina mexicana contemporánea. Destaca por su hermoso jardín interior y galería de arte, ideal para una cena romántica con platillos gourmet de temporada.",
    "playlists": ["romanticón", "aesthetic", "gourmet"],
    "source": "gemini",
    "place_id": null
  },
  {
    "id": "cdgdl_005",
    "name": "Restaurante Alcalde",
    "category": "Restaurantes",
    "address": "Av. México 2903, Col. Vallarta Norte",
    "city": "Guadalajara (Jalisco)",
    "phone": "33 3615 7400",
    "hours": "Mar-Sáb 13:30-23:00; Dom-Lun cerrado",
    "lat": 20.676,
    "lng": -103.392,
    "rating": 4.7,
    "price_range": "$$$$",
    "description_short": "Restaurante galardonado entre los mejores de Latinoamérica. Ofrece menú de autor con ingredientes locales reinventados de forma minimalista y creativa, brindando una experiencia gastronómica única.",
    "playlists": ["gourmet", "minimal"],
    "source": "gemini",
    "place_id": null
  },
  {
    "id": "cdgdl_006",
    "name": "Allium",
    "category": "Restaurantes",
    "address": "Calle Libertad 1590, Col. Americana",
    "city": "Guadalajara (Jalisco)",
    "phone": "33 3825 5931",
    "hours": "Mar-Sáb 14:00-23:00; Dom-Lun cerrado",
    "lat": 20.6744,
    "lng": -103.364,
    "rating": 4.5,
    "price_range": "$$$",
    "description_short": "Cocina local de campo a mesa en un ambiente íntimo. Su menú cambia con productos de estación, presentando platillos sencillos, refinados y llenos de sabor, en un espacio moderno y acogedor.",
    "playlists": ["minimal", "tranqui", "gourmet"],
    "source": "gemini",
    "place_id": null
  },
  {
    "id": "cdgdl_007",
    "name": "Suehiro",
    "category": "Restaurantes",
    "address": "Av. Manuel Ávila Camacho 2672, Col. Lomas de Providencia",
    "city": "Guadalajara (Jalisco)",
    "phone": "33 3641 3800",
    "hours": "Mar-Dom 13:00-22:00; Lun cerrado",
    "lat": 20.688,
    "lng": -103.372,
    "rating": 4.4,
    "price_range": "$$$",
    "description_short": "Restaurante japonés tradicional con décadas de historia en la ciudad. Ofrece auténtica cocina nipona (sushi, teppanyaki, sukiyaki) en un ambiente clásico, tranquilo y nostálgico que transporta a Japón.",
    "playlists": ["tranqui", "nostálgico"],
    "source": "gemini",
    "place_id": null
  },
  {
    "id": "cdgdl_008",
    "name": "Sagrantino",
    "category": "Restaurantes",
    "address": "Av. Pablo Neruda 3180, Col. Providencia",
    "city": "Guadalajara (Jalisco)",
    "phone": "33 3642 1708",
    "hours": "Lun-Sáb 14:00-01:00; Dom 14:00-18:00",
    "lat": 20.7,
    "lng": -103.385,
    "rating": 4.5,
    "price_range": "$$$",
    "description_short": "Restaurante de cocina italiana y vinos con atmósfera romántica. Cuenta con terraza y vistas a la ciudad; es reconocido por sus pastas artesanales, risottos, amplia cava de vinos y ambiente ideal para ocasiones especiales.",
    "playlists": ["romanticón"],
    "source": "gemini",
    "place_id": null
  },
  {
    "id": "cdgdl_009",
    "name": "Café PalReal",
    "category": "Cafés/Coffee Shops",
    "address": "Calle Lope de Vega 113, Col. Arcos Vallarta",
    "city": "Guadalajara (Jalisco)",
    "phone": "33 1562 1787",
    "hours": "Mar-Dom 09:00-23:00; Lun cerrado",
    "lat": 20.681,
    "lng": -103.37,
    "rating": 4.6,
    "price_range": "$$",
    "description_short": "Cafetería y cocina de autor famosa por su excelente café de especialidad y su ambiente relajado. Ofrece desayunos y brunch de inspiración local con toques gourmet, en un espacio ideal para charlar o trabajar.",
    "playlists": ["tranqui", "gourmet"],
    "source": "gemini",
    "place_id": null
  },
  {
    "id": "cdgdl_010",
    "name": "El Terrible Juan Café",
    "category": "Cafés/Coffee Shops",
    "address": "Av. La Paz 1811, Col. Americana",
    "city": "Guadalajara (Jalisco)",
    "phone": "33 1204 0175",
    "hours": "Lun-Dom 08:00-22:00",
    "lat": 20.672,
    "lng": -103.365,
    "rating": 4.5,
    "price_range": "$",
    "description_short": "Pequeña cafetería de culto con estética vintage e irreverente. Conocida por sus métodos de extracción artesanales y mezcla propia de café, acompañados de repostería casera, es punto de encuentro bohemio en la colonia Americana.",
    "playlists": ["boho", "tranqui"],
    "source": "gemini",
    "place_id": null
  },
  {
    "id": "cdgdl_011",
    "name": "Café Chai (Sucursal Américas)",
    "category": "Cafés/Coffee Shops",
    "address": "Av. de las Américas 651, Col. Ladrón de Guevara",
    "city": "Guadalajara (Jalisco)",
    "phone": "33 4444 4435",
    "hours": "Lun-Dom 08:00-01:00",
    "lat": 20.694,
    "lng": -103.384,
    "rating": 4.3,
    "price_range": "$$",
    "description_short": "Cadena local de cafeterías con variado menú de desayunos, ensaladas, paninis y bebidas para todos los gustos. Ambiente casual y espacioso, ideal para reuniones familiares o almuerzos de trabajo informales.",
    "playlists": ["familiar", "dominguero"],
    "source": "gemini",
    "place_id": null
  },
  {
    "id": "cdgdl_012",
    "name": "Starbucks (Centro Magno)",
    "category": "Cafés/Coffee Shops",
    "address": "Av. Vallarta 2425, Col. Arcos Vallarta",
    "city": "Guadalajara (Jalisco)",
    "phone": null,
    "hours": "Lun-Dom 07:00-23:00",
    "lat": 20.6739,
    "lng": -103.3768,
    "rating": 4.2,
    "price_range": "$$",
    "description_short": "Sucursal de la popular cadena de café internacional. Ofrece espresso, frapuccinos y snacks en un espacio cómodo con WiFi, frecuentado para encuentros de trabajo o tomar café al paso en zona comercial.",
    "playlists": ["godínez", "productivo"],
    "source": "gemini",
    "place_id": null
  },
  {
    "id": "cdgdl_013",
    "name": "Fitzroy Espresso Bar",
    "category": "Cafés/Coffee Shops",
    "address": "Calle Marsella 126, Col. Lafayette",
    "city": "Guadalajara (Jalisco)",
    "phone": "33 1523 2574",
    "hours": "Mar-Dom 08:00-22:00; Lun cerrado",
    "lat": 20.6749,
    "lng": -103.3725,
    "rating": 4.7,
    "price_range": "$$",
    "description_short": "Cafetería de tercera ola con ambiente hipster y patio oculto. Sirve café de especialidad preparado meticulosamente, acompañando un menú brunch famoso por sus hotcakes esponjosos y opciones internacionales.",
    "playlists": ["aesthetic", "tranqui"],
    "source": "gemini",
    "place_id": null
  },
  {
    "id": "cdgdl_014",
    "name": "Café La Flor de Córdoba (Centro)",
    "category": "Cafés/Coffee Shops",
    "address": "Av. Cristóbal Colón 49, Zona Centro",
    "city": "Guadalajara (Jalisco)",
    "phone": "33 3614 4821",
    "hours": "Lun-Jue 09:00-20:30; Vie-Dom 09:00-22:00",
    "lat": 20.6738,
    "lng": -103.348,
    "rating": 4.0,
    "price_range": "$",
    "description_short": "Cafetería tradicional fundada en 1938, famosa por su café veracruzano tostado y molido en casa. Ofrece antojitos, lechero y pan dulce en un entorno nostálgico del centro histórico, con aires de café de antaño.",
    "playlists": ["nostálgico"],
    "source": "gemini",
    "place_id": null
  },
  {
    "id": "cdgdl_015",
    "name": "Cantina La Fuente",
    "category": "Bares y Cantinas",
    "address": "Calle Pino Suárez 78, Zona Centro",
    "city": "Guadalajara (Jalisco)",
    "phone": "33 3696 0488",
    "hours": "Mar-Dom 12:00-00:00; Lun cerrado",
    "lat": 20.6765,
    "lng": -103.3475,
    "rating": 4.5,
    "price_range": "$",
    "description_short": "La cantina más antigua y emblemática de Guadalajara (fundada en 1921). Ambiente bohemio con piano y clientela local, donde es tradición brindar con tequila o cerveza acompañado de botanas y música en vivo de antaño.",
    "playlists": ["nostálgico", "barbón"],
    "source": "gemini",
    "place_id": null
  },
  {
    "id": "cdgdl_016",
    "name": "Bar Américas",
    "category": "Bares y Cantinas",
    "address": "Av. América 141, Col. Americana",
    "city": "Guadalajara (Jalisco)",
    "phone": "33 3615 9987",
    "hours": "Mié-Sáb 22:00-04:00; Otros días cerrado",
    "lat": 20.68,
    "lng": -103.369,
    "rating": 4.3,
    "price_range": "$$",
    "description_short": "Club underground de música electrónica de renombre internacional. Con DJs invitados y fiestas hasta el amanecer, ofrece beats de techno y house en un sótano oscuro, vibrante y lleno de energía para amantes del rave.",
    "playlists": ["traca", "barbón"],
    "source": "gemini",
    "place_id": null
  },
  {
    "id": "cdgdl_017",
    "name": "Cantina La Occidental",
    "category": "Bares y Cantinas",
    "address": "Calle Nueva Galicia 911, Col. Mexicaltzingo",
    "city": "Guadalajara (Jalisco)",
    "phone": "33 3614 7813",
    "hours": "Mar-Sáb 13:00-00:00; Dom 13:00-22:00; Lun cerrado",
    "lat": 20.6664,
    "lng": -103.3455,
    "rating": 4.4,
    "price_range": "$",
    "description_short": "Cantina tradicional con ambiente auténtico y botanas de cortesía. Punto de encuentro para disfrutar tequila, cerveza de barril y música mexicana. Su ambiente relajado y popular la convierte en parada obligada en el barrio de Las 9 Esquinas.",
    "playlists": ["barbón", "cultural"],
    "source": "gemini",
    "place_id": null
  },
  {
    "id": "cdgdl_018",
    "name": "Pare de Sufrir Mezcalería",
    "category": "Bares y Cantinas",
    "address": "Calle Argentina 66, Col. Americana",
    "city": "Guadalajara (Jalisco)",
    "phone": null,
    "hours": "Mié-Sáb 21:00-02:00; Dom-Mar cerrado",
    "lat": 20.676,
    "lng": -103.356,
    "rating": 4.4,
    "price_range": "$",
    "description_short": "Bar mezcalero pionero en la ciudad, especializado en mezcales artesanales. Ambiente ecléctico y alternativo con DJ ocasionales y bola disco, donde conviven amantes del mezcal en un espacio pequeño, informal y lleno de buena vibra.",
    "playlists": ["boho", "barbón"],
    "source": "gemini",
    "place_id": null
  },
  {
    "id": "cdgdl_019",
    "name": "Chupitería La Favorita",
    "category": "Bares y Cantinas",
    "address": "Calle Pedro Moreno 1567, Col. Lafayette",
    "city": "Guadalajara (Jalisco)",
    "phone": "33 3658 6057",
    "hours": "Mié-Sáb 20:00-02:30; Dom-Mar cerrado",
    "lat": 20.673,
    "lng": -103.372,
    "rating": 4.5,
    "price_range": "$",
    "description_short": "Bar de shots y coctelería famosa entre los jóvenes. Ambiente desenfadado con música pop, reggaetón y rock alternativo. Ideal para precopeo con amigos probando su variedad de \"chupitos\" creativos en un entorno animado e informal.",
    "playlists": ["bellaqueo"],
    "source": "gemini",
    "place_id": null
  },
  {
    "id": "cdgdl_020",
    "name": "El Depósito World Beer Store (Chapultepec)",
    "category": "Bares y Cantinas",
    "address": "Av. Chapultepec Sur 129, Col. Americana",
    "city": "Guadalajara (Jalisco)",
    "phone": "33 3826 3487",
    "hours": "Lun-Dom 13:00-01:00",
    "lat": 20.6749,
    "lng": -103.3697,
    "rating": 4.4,
    "price_range": "$$",
    "description_short": "Bar-tienda especializado en cervezas artesanales de todo el mundo. Ofrece decenas de etiquetas nacionales e importadas en un ambiente tipo speakeasy de la época de la prohibición, con promociones como 2x1 en pintas y un entorno favorito de los amantes de la cerveza.",
    "playlists": ["barbón"],
    "source": "gemini",
    "place_id": null
  },
  {
    "id": "cdgdl_021",
    "name": "Amor Apache Concept Store",
    "category": "Boutiques/Tiendas",
    "address": "Calle Libertad 1700 (2º piso), Col. Americana",
    "city": "Guadalajara (Jalisco)",
    "phone": "33 3827 2813",
    "hours": "Lun-Sáb 10:30-20:30; Dom 10:00-15:00",
    "lat": 20.673,
    "lng": -103.363,
    "rating": 4.8,
    "price_range": "$$$",
    "description_short": "Tienda de diseño mexicano con cuidada selección boho-chic. Reúne joyería, moda independiente, accesorios de belleza y decoración. Cada rincón está curado con talento local, creando una experiencia de compra única y con mucho estilo.",
    "playlists": ["boho", "aesthetic"],
    "source": "gemini",
    "place_id": null
  },
  {
    "id": "cdgdl_022",
    "name": "The Spot / Oxen Concept Store",
    "category": "Boutiques/Tiendas",
    "address": "Calle Pedro Moreno 1677, Col. Americana",
    "city": "Guadalajara (Jalisco)",
    "phone": null,
    "hours": "Mar-Dom 11:00-20:00; Lun cerrado",
    "lat": 20.6735,
    "lng": -103.3685,
    "rating": 4.7,
    "price_range": "$$$",
    "description_short": "Concept store pionera que agrupa más de 50 marcas y diseñadores mexicanos. Encontrarás moda urbana, arte gráfico, muebles y objetos con onda. Su ambientación es moderna y artística, perfecta para descubrir productos originales con sello local.",
    "playlists": ["aesthetic"],
    "source": "gemini",
    "place_id": null
  },
  {
    "id": "cdgdl_023",
    "name": "Nimia",
    "category": "Boutiques/Tiendas",
    "address": "Calle Manuel M. Diéguez 21, Col. Americana",
    "city": "Guadalajara (Jalisco)",
    "phone": null,
    "hours": "Mar-Sáb 12:00-20:00; Dom 12:00-18:00; Lun cerrado",
    "lat": 20.676,
    "lng": -103.353,
    "rating": 4.9,
    "price_range": "$$$",
    "description_short": "Gabinete de curiosidades y diseño. Tienda pequeña donde se exhiben piezas únicas de artesanos locales: cerámica, joyería, ilustraciones y artículos decorativos. Cada objeto es un tesoro seleccionado que invita a la exploración y el asombro.",
    "playlists": ["cultural"],
    "source": "gemini",
    "place_id": null
  },
  {
    "id": "cdgdl_024",
    "name": "Local México",
    "category": "Boutiques/Tiendas",
    "address": "Av. de las Rosas 543, Col. Chapalita Sur",
    "city": "Guadalajara (Jalisco)",
    "phone": null,
    "hours": "Lun-Vie 10:00-19:00; Sáb 10:00-14:00; Dom cerrado",
    "lat": 20.648,
    "lng": -103.399,
    "rating": 4.6,
    "price_range": "$$$",
    "description_short": "Tienda multimarca con más de 90 proyectos artesanales mexicanos. En un mismo espacio puedes encontrar ropa, calzado, bolsos, joyería, plantas, muebles y productos gourmet hechos en México, promoviendo el consumo local de calidad.",
    "playlists": ["familiar"],
    "source": "gemini",
    "place_id": null
  },
  {
    "id": "cdgdl_025",
    "name": "Instituto Cultural Cabañas (Museo Cabañas)",
    "category": "Espacios Culturales",
    "address": "Calle Cabañas 8, Col. Las Fresas (Plaza Tapatía)",
    "city": "Guadalajara (Jalisco)",
    "phone": "33 3668 1645",
    "hours": "Mar-Dom 10:00-17:00; Lun cerrado",
    "lat": 20.6783,
    "lng": -103.3389,
    "rating": 4.8,
    "price_range": "$",
    "description_short": "Antiguo hospicio neoclásico (Patrimonio UNESCO) convertido en centro cultural y museo de arte. Alberga los célebres murales de José Clemente Orozco, incluyendo \"El Hombre de Fuego\" en su majestuosa capilla. Imperdible para empaparse de cultura jalisciense.",
    "playlists": ["cultural", "nostálgico"],
    "source": "gemini",
    "place_id": null
  },
  {
    "id": "cdgdl_026",
    "name": "Teatro Degollado",
    "category": "Espacios Culturales",
    "address": "Calle Degollado s/n, Zona Centro",
    "city": "Guadalajara (Jalisco)",
    "phone": "33 3614 4773",
    "hours": null,
    "lat": 20.6765,
    "lng": -103.3463,
    "rating": 4.9,
    "price_range": "$",
    "description_short": "Teatro neoclásico inaugurado en 1866, símbolo cultural de Guadalajara. Su sala principal deslumbra con un fresco en el techo y acústica excepcional. Sede de la Orquesta Filarmónica y espectáculos de ballet, ópera y folclor, es un espacio majestuoso lleno de historia.",
    "playlists": ["cultural", "nostálgico"],
    "source": "gemini",
    "place_id": null
  },
  {
    "id": "cdgdl_027",
    "name": "MUSA – Museo de las Artes (U. de G.)",
    "category": "Espacios Culturales",
    "address": "Av. Juárez 975, Col. Americana",
    "city": "Guadalajara (Jalisco)",
    "phone": "33 3134 1664",
    "hours": "Mar-Dom 10:00-18:00; Lun cerrado",
    "lat": 20.6742,
    "lng": -103.359,
    "rating": 4.8,
    "price_range": "$",
    "description_short": "Museo universitario de arte contemporáneo, ubicado en un edificio histórico. Presenta exposiciones temporales de artistas locales e internacionales. Su joya es el Paraninfo, un auditorio decorado con impresionantes murales de Orozco.",
    "playlists": ["cultural", "tranqui"],
    "source": "gemini",
    "place_id": null
  },
  {
    "id": "cdgdl_028",
    "name": "Librería José Luis Martínez (FCE)",
    "category": "Librerías/Espacios Creativos",
    "address": "Av. Chapultepec Sur 198, Col. Americana",
    "city": "Guadalajara (Jalisco)",
    "phone": "33 3615 1214",
    "hours": "Lun-Sáb 09:00-21:00; Dom 09:30-16:00",
    "lat": 20.676,
    "lng": -103.363,
    "rating": 4.8,
    "price_range": "$",
    "description_short": "Librería emblemática del Fondo de Cultura Económica. Ofrece una amplia colección de literatura, arte y humanidades, con secciones para todas las edades. Ubicada sobre la Avenida Chapultepec, es un punto de encuentro cultural con eventos, presentaciones de libros y un ambiente propicio para la lectura.",
    "playlists": ["cultural", "tranqui"],
    "source": "gemini",
    "place_id": null
  },
  {
    "id": "cdgdl_029",
    "name": "Impronta Casa Editora",
    "category": "Librerías/Espacios Creativos",
    "address": "Calle Penitenciaría 414, Col. Mexicaltzingo",
    "city": "Guadalajara (Jalisco)",
    "phone": "33 3825 2641",
    "hours": "Mié-Vie 09:00-21:00; Sáb 10:00-21:00; Dom-Mar cerrado",
    "lat": 20.6703,
    "lng": -103.3557,
    "rating": 5.0,
    "price_range": "$",
    "description_short": "Espacio multidisciplinario que combina taller de impresión tipográfica, editorial independiente, librería y galería de arte. En esta casona se producen libros con técnicas tradicionales (linotipia, tipos móviles) y se imparten talleres creativos, creando una comunidad en torno al arte del libro.",
    "playlists": ["tranqui", "productivo"],
    "source": "gemini",
    "place_id": null
  },
  {
    "id": "cdgdl_030",
    "name": "Gaia Spa",
    "category": "Salón de Belleza/Spa",
    "address": "Calle Pablo Villaseñor 281, Col. Ladrón de Guevara",
    "city": "Guadalajara (Jalisco)",
    "phone": "33 1591 4799",
    "hours": "Lun-Sáb 09:00-21:00; Dom cerrado",
    "lat": 20.689,
    "lng": -103.376,
    "rating": 4.7,
    "price_range": "$$$",
    "description_short": "Spa urbano de inspiración tailandesa enfocado en bienestar integral. Ofrece masajes relajantes, tratamientos faciales de alta gama y experiencias de aromaterapia en un ambiente zen. Un oasis de tranquilidad en medio de la ciudad para consentirse y reducir el estrés.",
    "playlists": ["tranqui", "aesthetic", "minimal"],
    "source": "gemini",
    "place_id": null
  }
]
