[
  {
    "id": 1,
    "name": "Café de la Parroquia",
    "category": "Café",
    "address": "Jardín Principal, Centro, San Miguel de Allende, Guanajuato",
    "city": "San Miguel de Allende",
    "phone": null,
    "hours": null,
    "lat": null,
    "lng": null,
    "rating": 4.3,
    "price_range": "$$",
    "description_short": "Café tradicional frente al jardín principal con vista a la Parroquia.",
    "playlists": ["Tranqui", "Dominguero", "Turista"],
    "source": "web"
  },
  {
    "id": 2,
    "name": "Quince Rooftop",
    "category": "Restaurante",
    "address": "Cuna de Allende 15, Zona Centro, 37700 San Miguel de Allende, Gto.",
    "city": "San Miguel de Allende",
    "phone": "+52 415 154 9776",
    "hours": "L-J 13:00-23:30, V-S 12:00-23:30, D 12:00-22:30",
    "lat": null,
    "lng": null,
    "rating": 4.6,
    "price_range": "$$$$",
    "description_short": "Galardonado como el '#1 Rooftop Restaurant in the World', ofrece una atmósfera animada, música y vistas impresionantes a la Parroquia.",
    "playlists": ["fiesta", "night-out", "hype", "brunch", "partyhard"],
    "source": "web"
  },
  {
    "id": 3,
    "name": "ATRIO",
    "category": "Restaurante",
    "address": "Cuna de Allende 3, Centro, 37700 San Miguel de Allende, Gto.",
    "city": "San Miguel de Allende",
    "phone": null,
    "hours": null,
    "lat": null,
    "lng": null,
    "rating": 4.5,
    "price_range": "$$$$",
    "description_short": "Con vista directa a la Parroquia, su menú destaca por especialidades en horno de carbón como arroces y mariscos.",
    "playlists": ["romanticón", "soul-food", "noche-romántica", "aesthetic"],
    "source": "web"
  },
  {
    "id": 4,
    "name": "Antonia Rooftop",
    "category": "Restaurante",
    "address": "San Francisco 57, Zona Centro, 37700 San Miguel de Allende, Gto.",
    "city": "San Miguel de Allende",
    "phone": "+52 415 152 7295",
    "hours": "Diario 14:00 - 22:30",
    "lat": null,
    "lng": null,
    "rating": 4.5,
    "price_range": "$$$$",
    "description_short": "Terraza con propuesta culinaria contemporánea del chef Alejandro Cuatepotzo, centrada en productos locales y platillos a la leña.",
    "playlists": ["chill-bar", "brunch", "romanticón", "aesthetic"],
    "source": "web"
  },
  {
    "id": 5,
    "name": "Trazo 1810",
    "category": "Restaurante",
    "address": "Hidalgo 8, Zona Centro, 37700 San Miguel de Allende, Gto.",
    "city": "San Miguel de Allende",
    "phone": null,
    "hours": null,
    "lat": null,
    "lng": null,
    "rating": 4.5,
    "price_range": "$$$$",
    "description_short": "Sofisticado dining bar en el corazón de la ciudad, ideal para una comida elevada con amigos o una velada romántica con vistas.",
    "playlists": ["noche-romántica", "romanticón", "chill-bar", "after-office"],
    "source": "web"
  },
  {
    "id": 6,
    "name": "The Restaurant",
    "category": "Restaurante",
    "address": "Diez de Sollano y Dávalos 16, Zona Centro, 37700 San Miguel de Allende, Gto.",
    "city": "San Miguel de Allende",
    "phone": "+52 415 154 7862",
    "hours": "M-Mi 12:00-22:00, J-S 12:00-23:00, D 10:00-22:00",
    "lat": null,
    "lng": null,
    "rating": 4.4,
    "price_range": "$$$$",
    "description_short": "Cocina 'global comfort food' del chef Donnie Masterton en un elegante patio marroquí. Famoso por su Burger Night.",
    "playlists": ["vintage", "cozy", "brunch", "soul-food", "romanticón"],
    "source": "web"
  },
  {
    "id": 7,
    "name": "Bovine",
    "category": "Restaurante",
    "address": "Canal 16, Centro, 37700 San Miguel de Allende, Gto.",
    "city": "San Miguel de Allende",
    "phone": "+52 415 121 6787",
    "hours": "Mi-D 13:15-21:45",
    "lat": null,
    "lng": null,
    "rating": 4.5,
    "price_range": "$$$",
    "description_short": "Fusión de brasserie y steakhouse del chef Paul Bentley, con un diseño que mezcla Art Deco y modernidad. Calidad y sazón.",
    "playlists": ["vintage", "soul-food", "lounge", "romanticón"],
    "source": "web"
  },
  {
    "id": 8,
    "name": "La Parada",
    "category": "Restaurante",
    "address": "Calle Recreo 94, Zona Centro, 37700 San Miguel de Allende, Gto.",
    "city": "San Miguel de Allende",
    "phone": null,
    "hours": "Diario 13:00 - 21:00",
    "lat": null,
    "lng": null,
    "rating": 4.6,
    "price_range": "$$$",
    "description_short": "Auténtica cocina peruana, muy recomendada por sus sabrosos ceviches, tiraditos y su causa de pulpo. Una experiencia culinaria top.",
    "playlists": ["chill", "soul-food", "mexa-pop", "boho"],
    "source": "web"
  },
  {
    "id": 9,
    "name": "Ryoko",
    "category": "Restaurante",
    "address": "Calle del Dr. Ignacio Hernández Macías 82, Zona Centro, 37700 San Miguel de Allende, Gto.",
    "city": "San Miguel de Allende",
    "phone": "+52 415 688 5335",
    "hours": "D-Mi 13:00-22:00, J-S 13:00-23:30",
    "lat": null,
    "lng": null,
    "rating": 4.7,
    "price_range": "$$$",
    "description_short": "Barra japonesa contemporánea que ofrece una experiencia de alta calidad con excelente sushi, rollos creativos, ramen y menú omakase.",
    "playlists": ["minimal", "lounge", "aesthetic", "chill"],
    "source": "web"
  },
  {
    "id": 10,
    "name": "Spice Market",
    "category": "Restaurante",
    "address": "Calzada de la Presa 85, Hotel Live Aqua, Zona Centro, 37700 San Miguel de Allende, Gto.",
    "city": "San Miguel de Allende",
    "phone": "+52 415 150 2300",
    "hours": "L-J, D 13:00-23:00, V-S 13:00-00:00",
    "lat": null,
    "lng": null,
    "rating": 4.4,
    "price_range": "$$$",
    "description_short": "Ubicado en el hotel Live Aqua, sirve un menú de cocina asiática. Su terraza es ideal para drinks y botanas entre amigos.",
    "playlists": ["lounge", "chill-bar", "night-out", "flirty"],
    "source": "web"
  },
  {
    "id": 11,
    "name": "Áperi",
    "category": "Restaurante",
    "address": "Quebrada 101, Hotel Dos Casas, Centro, 37700 San Miguel de Allende, Gto.",
    "city": "San Miguel de Allende",
    "phone": null,
    "hours": null,
    "lat": null,
    "lng": null,
    "rating": 4.8,
    "price_range": "$$$$",
    "description_short": "Experiencia culinaria europea contemporánea con herencia franco-italiana e ingredientes orgánicos frescos de la región del Bajío.",
    "playlists": ["romanticón", "soul-food", "minimal", "noche-romántica"],
    "source": "web"
  },
  {
    "id": 12,
    "name": "Fátima 7",
    "category": "Restaurante",
    "address": "Juárez 7, Hotel Casa Blanca 7, Centro, 37700 San Miguel de Allende, Gto.",
    "city": "San Miguel de Allende",
    "phone": "+52 415 140 4431",
    "hours": null,
    "lat": null,
    "lng": null,
    "rating": 4.3,
    "price_range": "$$$$",
    "description_short": "Rooftop en el hotel Casa Blanca 7, especializado en platillos árabe-mediterráneos con productos orgánicos, frescos y sustentables.",
    "playlists": ["boho", "vibra-eco", "chill-bar", "romanticón"],
    "source": "web"
  },
  {
    "id": 13,
    "name": "Tené Kitchen & Bar",
    "category": "Restaurante",
    "address": "Hidalgo 8, Casa 1810 Parque Hotel Boutique, Centro, 37700 San Miguel de Allende, Gto.",
    "city": "San Miguel de Allende",
    "phone": "+52 415 688 6981",
    "hours": "Diario 07:00 - 23:00",
    "lat": null,
    "lng": null,
    "rating": 4.4,
    "price_range": "$$",
    "description_short": "Cocina reconfortante y sushi en un ambiente relajado con terraza y vistas panorámicas del centro de la ciudad.",
    "playlists": ["chill-bar", "lounge", "brunch", "romanticón"],
    "source": "web"
  },
  {
    "id": 14,
    "name": "Lavanda Café de Especialidad",
    "category": "Café",
    "address": "Callejón de Loreto 48-A, Zona Centro, 37700 San Miguel de Allende, Gto.",
    "city": "San Miguel de Allende",
    "phone": null,
    "hours": null,
    "lat": null,
    "lng": null,
    "rating": 4.7,
    "price_range": "$$",
    "description_short": "El café más popular de la ciudad. Espacio rústico conocido por su excelente café de especialidad y su Latte Lavanda.",
    "playlists": ["aesthetic-café", "cozy", "brunch", "chill-café", "study-vibes"],
    "source": "web"
  },
  {
    "id": 15,
    "name": "Ki'bok Coffee SMA",
    "category": "Café",
    "address": "Diez de Sollano y Dávalos 25, Zona Centro, 37700 San Miguel de Allende, Gto.",
    "city": "San Miguel de Allende",
    "phone": null,
    "hours": "Diario 08:00 - 19:00",
    "lat": null,
    "lng": null,
    "rating": 4.5,
    "price_range": "$$",
    "description_short": "Café de tres niveles con ambiente acogedor, favorito de nómadas digitales. Comprometido con la sostenibilidad y granos locales.",
    "playlists": ["cozy", "productivo", "chill-study", "lo-fi-hiphop", "coffee-house"],
    "source": "web"
  },
  {
    "id": 16,
    "name": "Inside Cafe",
    "category": "Café",
    "address": "Insurgentes 66, Planta Alta, Zona Centro, 37700 San Miguel de Allende, Gto.",
    "city": "San Miguel de Allende",
    "phone": "+52 415 566 4277",
    "hours": "L-D 09:00-15:00, V 18:00-21:00",
    "lat": null,
    "lng": null,
    "rating": 4.8,
    "price_range": "$$",
    "description_short": "Joya escondida con una terraza en la azotea y vistas al Oratorio. Famoso por su brunch innovador y sabroso.",
    "playlists": ["brunch", "aesthetic-café", "cozy", "chill-café", "sunday-morning"],
    "source": "web"
  },
  {
    "id": 17,
    "name": "San Agustín Chocolates y Churros",
    "category": "Café",
    "address": "San Francisco 21, Zona Centro, 37700 San Miguel de Allende, Gto.",
    "city": "San Miguel de Allende",
    "phone": "+52 415 152 5795",
    "hours": "Diario 08:00 - 22:00",
    "lat": null,
    "lng": null,
    "rating": 4.3,
    "price_range": "$$",
    "description_short": "Institución en San Miguel, famosa por sus churros frescos y crujientes y su rico chocolate caliente mexicano. Suele haber filas.",
    "playlists": ["vintage", "cozy", "mexa-pop", "aesthetic-café"],
    "source": "web"
  },
  {
    "id": 18,
    "name": "Cumpanio",
    "category": "Café",
    "address": "Correo 29, Zona Centro, 37700 San Miguel de Allende, Gto.",
    "city": "San Miguel de Allende",
    "phone": "+52 415 152 2327",
    "hours": null,
    "lat": null,
    "lng": null,
    "rating": 4.6,
    "price_range": "$$",
    "description_short": "Moderna panadería y restaurante gourmet de estilo europeo. Ofrece desayunos y brunch creativos junto a su panadería hermana, Panio.",
    "playlists": ["brunch", "aesthetic-café", "minimal", "coffee-house"],
    "source": "web"
  },
  {
    "id": 19,
    "name": "Garambullo Fonda Gourmet",
    "category": "Café",
    "address": "Animas 46, Zona Centro, 37700 San Miguel de Allende, Gto.",
    "city": "San Miguel de Allende",
    "phone": "+52 415 152 3388",
    "hours": "J-L 09:00 - 16:00",
    "lat": null,
    "lng": null,
    "rating": 4.7,
    "price_range": "$$",
    "description_short": "Acogedor café con una barra de café moderna y paredes de piedra rústica. Eleva platillos clásicos con ingredientes frescos y locales.",
    "playlists": ["cozy", "brunch", "soul-food", "aesthetic-café", "vibra-eco"],
    "source": "web"
  },
  {
    "id": 20,
    "name": "Tunki Rooftop by Handshake",
    "category": "Bar y Cantina",
    "address": "Hospicio 35, Belmond Casa de Sierra Nevada, Zona Centro, 37700 San Miguel de Allende, Gto.",
    "city": "San Miguel de Allende",
    "phone": "+52 415 152 7040",
    "hours": "M-D 14:30 - 22:30",
    "lat": null,
    "lng": null,
    "rating": null,
    "price_range": "$$$$",
    "description_short": "Colaboración con Handshake Speakeasy (#1 del mundo). Ofrece coctelería pionera y bocadillos peruanos en un rooftop de lujo.",
    "playlists": ["lounge", "night-out", "flirty", "hype", "romanticón"],
    "source": "web"
  },
  {
    "id": 21,
    "name": "The Blind Jaguar",
    "category": "Bar y Cantina",
    "address": "Diez de Sollano y Dávalos 14, Zona Centro, 37700 San Miguel de Allende, Gto.",
    "city": "San Miguel de Allende",
    "phone": null,
    "hours": null,
    "lat": null,
    "lng": null,
    "rating": null,
    "price_range": "$$$",
    "description_short": "El lugar de moda 'donde comienza la noche'. Vistas al atardecer, cócteles de autor y música electrónica para un público 'cool'.",
    "playlists": ["night-out", "partyhard", "hype", "flirty", "tech-house"],
    "source": "web"
  },
  {
    "id": 22,
    "name": "Cantina La Cucaracha",
    "category": "Bar y Cantina",
    "address": "Zacateros 22, Zona Centro, 37700 San Miguel de Allende, Gto.",
    "city": "San Miguel de Allende",
    "phone": "+52 55 2104 3040",
    "hours": "Diario 16:00 - 22:00",
    "lat": null,
    "lng": null,
    "rating": 4.5,
    "price_range": "$",
    "description_short": "La cantina más emblemática y auténtica de la ciudad. Un lugar sin pretensiones para tomar una cerveza y cantar con la rocola.",
    "playlists": ["vintage", "mexa-pop", "corridos", "sadboy", "chill-bar"],
    "source": "web"
  },
  {
    "id": 23,
    "name": "Cantina El Manantial",
    "category": "Bar y Cantina",
    "address": "Barranca 78, Centro, 37700 San Miguel de Allende, Gto.",
    "city": "San Miguel de Allende",
    "phone": null,
    "hours": null,
    "lat": null,
    "lng": null,
    "rating": 4.6,
    "price_range": "$$",
    "description_short": "Fundada en 1920, esta cantina de antaño es una institución local. Sirve platillos tradicionales en un ambiente desenfadado.",
    "playlists": ["vintage", "mexa-pop", "chill-bar", "acústico"],
    "source": "web"
  },
  {
    "id": 24,
    "name": "República",
    "category": "Bar y Cantina",
    "address": null,
    "city": "San Miguel de Allende",
    "phone": null,
    "hours": null,
    "lat": null,
    "lng": null,
    "rating": null,
    "price_range": "$$$",
    "description_short": "Anteriormente 'El Grito', este club nocturno en una casa colonial es un hotspot para entusiastas de la música electrónica.",
    "playlists": ["partyhard", "tech-house", "night-out", "hype-mx", "bellaqueo"],
    "source": "web"
  },
  {
    "id": 25,
    "name": "SAMMY",
    "category": "Bar y Cantina",
    "address": null,
    "city": "San Miguel de Allende",
    "phone": null,
    "hours": null,
    "lat": null,
    "lng": null,
    "rating": null,
    "price_range": "$$$",
    "description_short": "Antro en el centro de San Miguel con música versátil, promociones en botellas y un ambiente animado, ideal para fiestas.",
    "playlists": ["fiesta", "partyhard", "reggaetón", "night-out", "bellaqueo"],
    "source": "web"
  },
  {
    "id": 26,
    "name": "Le Roy SMA",
    "category": "Bar y Cantina",
    "address": "Correo 25, Zona Centro, 37700 San Miguel de Allende, Gto.",
    "city": "San Miguel de Allende",
    "phone": "+52 442 142 3409",
    "hours": "J-V 16:00-00:00, S 12:00-00:00, D 12:00-22:00",
    "lat": null,
    "lng": null,
    "rating": 4.7,
    "price_range": "$$$$",
    "description_short": "Piano Bar en una terraza donde los clásicos cobran vida. Ambiente sofisticado para disfrutar de comida, vino y música en vivo.",
    "playlists": ["lounge", "vintage", "romanticón", "noche-romántica", "jazzy"],
    "source": "web"
  },
  {
    "id": 27,
    "name": "Librería Educal",
    "category": "Librería con Encanto",
    "address": "Dr. Hernández Macías 75, Centro Cultural El Nigromante, Zona Centro, 37700 San Miguel de Allende, Gto.",
    "city": "San Miguel de Allende",
    "phone": "+52 415 154 9179",
    "hours": null,
    "lat": null,
    "lng": null,
    "rating": null,
    "price_range": null,
    "description_short": "Ubicada dentro del prestigioso Centro Cultural 'El Nigromante', ofrece una gran colección de libros de arte, literatura e historia.",
    "playlists": ["study-vibes", "lofi", "mindfulness", "vintage", "chill-study"],
    "source": "web"
  },
  {
    "id": 28,
    "name": "Librería La Deriva",
    "category": "Librería con Encanto",
    "address": "Calzada de la Aurora s/n, Fábrica La Aurora, 37710 San Miguel de Allende, Gto.",
    "city": "San Miguel de Allende",
    "phone": "+52 415 154 5076",
    "hours": null,
    "lat": null,
    "lng": null,
    "rating": null,
    "price_range": null,
    "description_short": "Situada dentro del centro de arte y diseño Fábrica La Aurora, es un destino para amantes del arte y la lectura por igual.",
    "playlists": ["study-vibes", "vintage", "aesthetic", "chill-study", "mindfulness"],
    "source": "web"
  },
  {
    "id": 29,
    "name": "Librería Tesoros",
    "category": "Librería con Encanto",
    "address": "Insurgentes 25, Biblioteca Pública, Zona Centro, 37700 San Miguel de Allende, Gto.",
    "city": "San Miguel de Allende",
    "phone": null,
    "hours": null,
    "lat": null,
    "lng": null,
    "rating": null,
    "price_range": null,
    "description_short": "Dentro de la Biblioteca Pública, es un recurso vital para la comunidad expatriada con una amplia variedad de títulos en inglés y francés.",
    "playlists": ["study-vibes", "cozy", "vintage", "chill-study", "lo-fi-hiphop"],
    "source": "web"
  },
  {
    "id": 30,
    "name": "La Musa Hosca Librería",
    "category": "Librería con Encanto",
    "address": "Mesones 38, Zona Centro, 37700 San Miguel de Allende, Gto.",
    "city": "San Miguel de Allende",
    "phone": null,
    "hours": null,
    "lat": null,
    "lng": null,
    "rating": null,
    "price_range": null,
    "description_short": "Librería independiente con una amplia y variada selección de temas para todo tipo de lectores curiosos.",
    "playlists": ["study-vibes", "vintage", "cozy", "chill-study"],
    "source": "web"
  },
  {
    "id": 31,
    "name": "Vórtice Librería",
    "category": "Librería con Encanto",
    "address": "Insurgentes 90, Zona Centro, 37700 San Miguel de Allende, Gto.",
    "city": "San Miguel de Allende",
    "phone": null,
    "hours": null,
    "lat": null,
    "lng": null,
    "rating": null,
    "price_range": null,
    "description_short": "Una de las librerías populares de la ciudad, ofreciendo una selección diversa para la comunidad lectora local.",
    "playlists": ["study-vibes", "chill", "vintage"],
    "source": "web"
  },
  {
    "id": 32,
    "name": "Mixta",
    "category": "Boutique",
    "address": "Pila Seca 3, Zona Centro, 37700 San Miguel de Allende, Gto.",
    "city": "San Miguel de Allende",
    "phone": null,
    "hours": null,
    "lat": null,
    "lng": null,
    "rating": 4.7,
    "price_range": "$$$",
    "description_short": "La 'Anthropologie de San Miguel'. Una mezcla curada de moda, textiles, joyería y arte en una impresionante casona colonial.",
    "playlists": ["boho", "vintage", "aesthetic", "vibra-eco", "dreamy"],
    "source": "web"
  },
  {
    "id": 33,
    "name": "SINDASHI",
    "category": "Boutique",
    "address": "Calle del Dr. Ignacio Hernandez Macias 83-A, Zona Centro, 37700 San Miguel de Allende, Gto.",
    "city": "San Miguel de Allende",
    "phone": "+52 415 152 2310",
    "hours": null,
    "lat": null,
    "lng": null,
    "rating": 4.8,
    "price_range": "$$$$",
    "description_short": "Un tesoro de 'arte vestible'. Ropa pintada a mano, incluyendo vestidos y blusas, con diseños inspirados en la cultura mexicana.",
    "playlists": ["boho", "vintage", "aesthetic", "mexa-pop", "cute-core"],
    "source": "web"
  },
  {
    "id": 34,
    "name": "Abrazos Boutique",
    "category": "Boutique",
    "address": "Zacateros 24, Zona Centro, 37700 San Miguel de Allende, Gto.",
    "city": "San Miguel de Allende",
    "phone": "+52 415 154 8580",
    "hours": null,
    "lat": null,
    "lng": null,
    "rating": 4.6,
    "price_range": "$$$",
    "description_short": "Productos de algodón con icónicos motivos mexicanos (calaveras, Frida, luchadores). Opera bajo un modelo de comercio justo.",
    "playlists": ["mexa-pop", "vintage", "cute-core", "k-cute", "boho"],
    "source": "web"
  },
  {
    "id": 35,
    "name": "Pineda Covalin",
    "category": "Boutique",
    "address": "Calzada de la Aurora s/n, Local 11-A, Fábrica La Aurora, 37710 San Miguel de Allende, Gto.",
    "city": "San Miguel de Allende",
    "phone": "+52 415 152 1568",
    "hours": "L-D 10:00 - 18:00",
    "lat": null,
    "lng": null,
    "rating": 4.5,
    "price_range": "$$$$",
    "description_short": "Reconocida marca de lujo mexicana, famosa por sus mascadas de seda, corbatas y accesorios con vibrantes diseños culturales.",
    "playlists": ["vintage", "minimal", "aesthetic", "mexa-pop"],
    "source": "web"
  },
  {
    "id": 36,
    "name": "Casa R Concept Store",
    "category": "Boutique",
    "address": "Mesones 58, Zona Centro, 37700 San Miguel de Allende, Gto.",
    "city": "San Miguel de Allende",
    "phone": "+52 415 688 1278",
    "hours": null,
    "lat": null,
    "lng": null,
    "rating": 4.7,
    "price_range": "$$$$",
    "description_short": "Centro comercial elegante con tiendas de ropa, bolsos y joyas de diseñadores mexicanos de alta calidad. Colección ecléctica.",
    "playlists": ["aesthetic", "minimal", "vintage", "boho"],
    "source": "web"
  },
  {
    "id": 37,
    "name": "Recreo San Miguel",
    "category": "Boutique",
    "address": "Recreo 26, Zona Centro, 37700 San Miguel de Allende, Gto.",
    "city": "San Miguel de Allende",
    "phone": null,
    "hours": null,
    "lat": null,
    "lng": null,
    "rating": null,
    "price_range": "$$$$",
    "description_short": "Interpretación moderna y lujosa del sarape tradicional mexicano, utilizando materiales de alta gama como sedas italianas y lanas finas.",
    "playlists": ["vintage", "boho", "mexa-pop", "minimal"],
    "source": "web"
  },
  {
    "id": 38,
    "name": "Dôce 18 Concept House",
    "category": "Boutique",
    "address": "Relox 18, Zona Centro, 37700 San Miguel de Allende, Gto.",
    "city": "San Miguel de Allende",
    "phone": null,
    "hours": null,
    "lat": null,
    "lng": null,
    "rating": 4.6,
    "price_range": "$$$$",
    "description_short": "Destino multifacético que une comida, moda y arte. Su tienda presenta una curaduría de marcas de primer nivel de México y el mundo.",
    "playlists": ["aesthetic", "hype", "minimal", "lounge"],
    "source": "web"
  },
  {
    "id": 39,
    "name": "Sense, A Rosewood Spa®",
    "category": "Salón de Belleza",
    "address": "Nemesio Diez 11, Hotel Rosewood, Zona Centro, 37700 San Miguel de Allende, Gto.",
    "city": "San Miguel de Allende",
    "phone": "+1 855 441 9048",
    "hours": "Diario 08:00 - 20:00",
    "lat": null,
    "lng": null,
    "rating": 5,
    "price_range": "$$$$",
    "description_short": "Santuario de spa de primer nivel inspirado en la curación tradicional mexicana, utilizando ingredientes autóctonos únicos.",
    "playlists": ["mindfulness", "chill", "dreamy", "serenata", "unplug-chill"],
    "source": "web"
  },
  {
    "id": 40,
    "name": "Spa Matilda",
    "category": "Salón de Belleza",
    "address": "Aldama 53, Hotel Matilda, Zona Centro, 37700 San Miguel de Allende, Gto.",
    "city": "San Miguel de Allende",
    "phone": null,
    "hours": null,
    "lat": null,
    "lng": null,
    "rating": 4.8,
    "price_range": "$$$$",
    "description_short": "Spa holístico en el Hotel Matilda, reconocido por su 'conserje boticario' que crea viajes de bienestar personalizados.",
    "playlists": ["mindfulness", "chillwave", "dreamy", "vibra-eco", "unplug-chill"],
    "source": "web"
  },
  {
    "id": 41,
    "name": "Laja Spa",
    "category": "Salón de Belleza",
    "address": "Hospicio 35, Belmond Casa de Sierra Nevada, Zona Centro, 37700 San Miguel de Allende, Gto.",
    "city": "San Miguel de Allende",
    "phone": null,
    "hours": null,
    "lat": null,
    "lng": null,
    "rating": null,
    "price_range": "$$$$",
    "description_short": "Ubicado en el hotel Belmond, ofrece una experiencia de bienestar única con ingredientes botánicos y un tradicional baño de vapor Temazcal.",
    "playlists": ["mindfulness", "vibra-eco", "unplug-chill", "serenata"],
    "source": "web"
  },
  {
    "id": 42,
    "name": "IRIS Spa",
    "category": "Salón de Belleza",
    "address": "Quebrada 101, Hotel Dos Casas, Centro, 37700 San Miguel de Allende, Gto.",
    "city": "San Miguel de Allende",
    "phone": null,
    "hours": null,
    "lat": null,
    "lng": null,
    "rating": null,
    "price_range": "$$$$",
    "description_short": "Parte del Hotel Dos Casas, elogiado por su decoración armoniosa que mezcla estilos modernos y coloniales para una relajación profunda.",
    "playlists": ["mindfulness", "chill", "dreamy", "aesthetic"],
    "source": "web"
  },
  {
    "id": 43,
    "name": "Merak Hairstudio",
    "category": "Salón de Belleza",
    "address": "Ancha de San Antonio 9A, Zona Centro, 37700 San Miguel de Allende, Gto.",
    "city": "San Miguel de Allende",
    "phone": "+52 415 688 1309",
    "hours": null,
    "lat": null,
    "lng": null,
    "rating": 5,
    "price_range": "$$",
    "description_short": "Salón de belleza profesional que ofrece una variedad de servicios de peluquería y estilismo en el centro de la ciudad.",
    "playlists": ["aesthetic", "flex", "cute-core"],
    "source": "web"
  },
  {
    "id": 44,
    "name": "Passion Lashes Nails Beauty",
    "category": "Salón de Belleza",
    "address": "Salida a Celaya 19 A, Allende, 37760 San Miguel de Allende, Gto.",
    "city": "San Miguel de Allende",
    "phone": "+52 415 688 2655",
    "hours": null,
    "lat": null,
    "lng": null,
    "rating": 5,
    "price_range": "$$",
    "description_short": "Estudio de belleza especializado en pestañas, uñas y otros tratamientos de belleza, con múltiples sucursales en la ciudad.",
    "playlists": ["cute-core", "aesthetic", "flirty"],
    "source": "web"
  },
  {
    "id": 45,
    "name": "ESTETICA TOTAL BEAUTY",
    "category": "Salón de Belleza",
    "address": "Avenida Principal La Luz 5, Fracc Insurgentes, 37745 San Miguel de Allende, Gto.",
    "city": "San Miguel de Allende",
    "phone": "+52 415 119 6309",
    "hours": null,
    "lat": null,
    "lng": null,
    "rating": null,
    "price_range": "$$",
    "description_short": "Salón oficial de L'Oréal Professionnel que ofrece soluciones personalizadas de corte, coloración, tratamiento y peinado.",
    "playlists": ["aesthetic", "flex"],
    "source": "web"
  },
  {
    "id": 46,
    "name": "Fábrica La Aurora",
    "category": "Espacio Cultural",
    "address": "Calzada de La Aurora S/N, Aurora, 37710 San Miguel de Allende, Gto.",
    "city": "San Miguel de Allende",
    "phone": null,
    "hours": null,
    "lat": null,
    "lng": null,
    "rating": 4.7,
    "price_range": null,
    "description_short": "Antigua fábrica textil convertida en un centro de arte y diseño. Alberga galerías, estudios de artistas, tiendas y restaurantes.",
    "playlists": ["vintage", "aesthetic", "productivo", "chill-study", "mindfulness"],
    "source": "web"
  },
  {
    "id": 47,
    "name": "Centro Cultural Ignacio Ramírez 'El Nigromante'",
    "category": "Espacio Cultural",
    "address": "Dr. Hernández Macías 75, Zona Centro, 37700 San Miguel de Allende, Gto.",
    "city": "San Miguel de Allende",
    "phone": "+52 415 152 0289",
    "hours": "L-S 10:00-18:00, D 10:00-14:00",
    "lat": null,
    "lng": null,
    "rating": 4.7,
    "price_range": null,
    "description_short": "Centro cultural del INBA en un convento del s. XVIII. Ofrece clases, exposiciones y alberga un mural inconcluso de Siqueiros.",
    "playlists": ["vintage", "mindfulness", "study-vibes", "aesthetic", "lofi"],
    "source": "web"
  },
  {
    "id": 48,
    "name": "Casa de la Cultura de San Miguel de Allende",
    "category": "Espacio Cultural",
    "address": "Bajada del Chorro 4, Zona Centro, 37700 San Miguel de Allende, Gto.",
    "city": "San Miguel de Allende",
    "phone": "+52 415 154 5670",
    "hours": null,
    "lat": null,
    "lng": null,
    "rating": null,
    "price_range": null,
    "description_short": "Centro para el arte y la educación local. Cuenta con galerías, talleres de danza, música y teatro, y eventos culturales.",
    "playlists": ["mexa-pop", "mindfulness", "acústico", "folk-mx", "vintage"],
    "source": "web"
  },
  {
    "id": 49,
    "name": "Museo Histórico Casa de Allende",
    "category": "Espacio Cultural",
    "address": "Cuna de Allende 1, Zona Centro, 37700 San Miguel de Allende, Gto.",
    "city": "San Miguel de Allende",
    "phone": null,
    "hours": null,
    "lat": null,
    "lng": null,
    "rating": 4.6,
    "price_range": null,
    "description_short": "Antigua residencia de Ignacio Allende, héroe de la Independencia de México. Un lugar imprescindible para amantes de la historia.",
    "playlists": ["vintage", "study-vibes", "mindfulness"],
    "source": "web"
  },
  {
    "id": 50,
    "name": "Mercado de Artesanías",
    "category": "Espacio Cultural",
    "address": "Plaza Lanatón, Zona Centro, 37700 San Miguel de Allende, Gto.",
    "city": "San Miguel de Allende",
    "phone": null,
    "hours": null,
    "lat": null,
    "lng": null,
    "rating": 4.5,
    "price_range": "$$",
    "description_short": "Amplio mercado donde artesanos locales venden todo tipo de objetos de latón, madera, vidrio, cerámica y las típicas catrinas.",
    "playlists": ["mercados", "mexa-pop", "vintage", "boho"],
    "source": "web"
  },
  {
    "id": 51,
    "name": "Galería Hilo Negro",
    "category": "Espacio Cultural",
    "address": "Calz. La Aurora s/n, local 1D, Col. La Aurora, 37710 San Miguel de Allende, Gto.",
    "city": "San Miguel de Allende",
    "phone": null,
    "hours": null,
    "lat": null,
    "lng": null,
    "rating": null,
    "price_range": null,
    "description_short": "Galería de arte ubicada en el centro cultural Fábrica La Aurora, posiblemente con un enfoque en arte textil y contemporáneo.",
    "playlists": ["aesthetic", "vintage", "mindfulness", "minimal"],
    "source": "web"
  },
  {
    "id": 52,
    "name": "Filippo Giusti",
    "category": "Espacio Cultural",
    "address": "Calz. La Aurora s/n, Col. La Aurora, 37710 San Miguel de Allende, Gto.",
    "city": "San Miguel de Allende",
    "phone": null,
    "hours": null,
    "lat": null,
    "lng": null,
    "rating": null,
    "price_range": null,
    "description_short": "Galería y estudio del escultor Filippo Giusti, presentando su obra contemporánea dentro del complejo Fábrica La Aurora.",
    "playlists": ["aesthetic", "minimal", "mindfulness"],
    "source": "web"
  },
  {
    "id": 53,
    "name": "Galería La Buhardilla",
    "category": "Espacio Cultural",
    "address": "Calz. La Aurora s/n, local 4 A, Col. La Aurora, 37710 San Miguel de Allende, Gto.",
    "city": "San Miguel de Allende",
    "phone": null,
    "hours": null,
    "lat": null,
    "lng": null,
    "rating": null,
    "price_range": null,
    "description_short": "Una de las múltiples galerías de arte general que se encuentran en el vibrante centro cultural y de diseño Fábrica La Aurora.",
    "playlists": ["aesthetic", "vintage", "chill-study"],
    "source": "web"
  },
  {
    "id": 54,
    "name": "Galería Urbana",
    "category": "Espacio Cultural",
    "address": "Libramiento Manuel Zavala s/n, Centro, 37700 San Miguel de Allende, Gto.",
    "city": "San Miguel de Allende",
    "phone": null,
    "hours": null,
    "lat": null,
    "lng": null,
    "rating": null,
    "price_range": null,
    "description_short": "Galería de arte con un posible enfoque en arte urbano y contemporáneo, ubicada en la zona centro de la ciudad.",
    "playlists": ["urbano", "hype-mx", "trap-mx"],
    "source": "web"
  },
  {
    "id": 55,
    "name": "Cázares & Parés Galería/Estudio",
    "category": "Espacio Cultural",
    "address": "Ancha de San Antonio 20-1, Centro, 37700 San Miguel de Allende, Gto.",
    "city": "San Miguel de Allende",
    "phone": null,
    "hours": null,
    "lat": null,
    "lng": null,
    "rating": null,
    "price_range": null,
    "description_short": "Espacio combinado que funciona como galería de arte y estudio de los artistas, ofreciendo una mirada íntima a su proceso creativo.",
    "playlists": ["aesthetic", "mindfulness", "productivo"],
    "source": "web"
  },
  {
    "id": 56,
    "name": "Galería Skot Foreman Fine Art",
    "category": "Espacio Cultural",
    "address": "Calz. La Aurora s/n, local 12 A, Col. La Aurora, 37710 San Miguel de Allende, Gto.",
    "city": "San Miguel de Allende",
    "phone": null,
    "hours": null,
    "lat": null,
    "lng": null,
    "rating": null,
    "price_range": null,
    "description_short": "Galería de bellas artes con una selección curada de obras, parte del reconocido conglomerado artístico Fábrica La Aurora.",
    "playlists": ["vintage", "aesthetic", "mindfulness"],
    "source": "web"
  },
  {
    "id": 57,
    "name": "Beatriz Cotaa y Joaquín Piñeiro Art Studio",
    "category": "Espacio Cultural",
    "address": "Calz.de la Aurora s/n, local 1-E, Col. La Aurora, 37710 San Miguel de Allende, Gto.",
    "city": "San Miguel de Allende",
    "phone": null,
    "hours": null,
    "lat": null,
    "lng": null,
    "rating": null,
    "price_range": null,
    "description_short": "Estudio de arte de los pintores Beatriz Cotaa y Joaquín Piñeiro, donde los visitantes pueden ver a los artistas en acción.",
    "playlists": ["productivo", "mindfulness", "aesthetic"],
    "source": "web"
  },
  {
    "id": 58,
    "name": "Galería Kelley Vandiver",
    "category": "Espacio Cultural",
    "address": "Calz. La Aurora s/n, local 1B-1, Col. La Aurora, 37710 San Miguel de Allende, Gto.",
    "city": "San Miguel de Allende",
    "phone": null,
    "hours": null,
    "lat": null,
    "lng": null,
    "rating": null,
    "price_range": null,
    "description_short": "Galería personal del artista Kelley Vandiver, exhibiendo su obra dentro del centro de arte y diseño Fábrica La Aurora.",
    "playlists": ["aesthetic", "mindfulness"],
    "source": "web"
  },
  {
    "id": 59,
    "name": "Rosewood Art Gallery",
    "category": "Espacio Cultural",
    "address": "Nemesio Diez 11, Centro, 37700 San Miguel de Allende, Gto.",
    "city": "San Miguel de Allende",
    "phone": null,
    "hours": null,
    "lat": null,
    "lng": null,
    "rating": null,
    "price_range": null,
    "description_short": "Galería de arte ubicada dentro del lujoso hotel Rosewood, presentando una selección de obras de bellas artes.",
    "playlists": ["lounge", "aesthetic", "minimal"],
    "source": "web"
  },
  {
    "id": 60,
    "name": "Galería Intersección de Arte Contemporáneo",
    "category": "Espacio Cultural",
    "address": "Calz. La Aurora, local 18 A, Col. La Aurora, 37710 San Miguel de Allende, Gto.",
    "city": "San Miguel de Allende",
    "phone": null,
    "hours": null,
    "lat": null,
    "lng": null,
    "rating": null,
    "price_range": null,
    "description_short": "Espacio dedicado a la exhibición de arte contemporáneo, formando parte del circuito de galerías de Fábrica La Aurora.",
    "playlists": ["aesthetic", "minimal", "mindfulness"],
    "source": "web"
  },
  {
    "id": 61,
    "name": "Estudio Galería Edgardo Kerlegand",
    "category": "Espacio Cultural",
    "address": "Calz. La Aurora local 17 C, Col. La Aurora, 37710 San Miguel de Allende, Gto.",
    "city": "San Miguel de Allende",
    "phone": null,
    "hours": null,
    "lat": null,
    "lng": null,
    "rating": null,
    "price_range": null,
    "description_short": "Estudio y galería del artista Edgardo Kerlegand, ofreciendo una visión de su trabajo y proceso creativo en Fábrica La Aurora.",
    "playlists": ["aesthetic", "mindfulness", "productivo"],
    "source": "web"
  }
]
